{
  "LSP-001": {
    "transporter_id": "LSP-001",
    "transporter_name": "Reliable Logistics Ltd",
    "profile_completion": 95,
    "owned_fleet": 450,
    "headquarters": ["Mumbai", "Delhi", "Bangalore"],
    "turnover": [
      {
        "financial_year": "2023-2024",
        "amount": "250",
        "unit": "CR"
      },
      {
        "financial_year": "2022-2023",
        "amount": "210",
        "unit": "CR"
      }
    ],
    "net_profit": [
      {
        "financial_year": "2023-2024",
        "amount": "35",
        "unit": "CR",
        "currency": "INR",
        "uploaded_on": "2024-06-15T10:00:00Z"
      }
    ],
    "industry_served": ["Cement", "Steel", "FMCG", "Automobile"],
    "truck_asset_details": ["10 wheeler open body", "12 wheeler container", "Taurus (MT 21)", "Trailer (MT 30)"],
    "overall_rating": 4.8,
    "last_updated": "2025-03-01T08:00:00Z",
    "years_of_experience": 15,
    "operating_lanes": [
      { 
        "origin": {"location_name": "Delhi", "coordinates": [77.1025, 28.7041]},
        "destination": {"location_name": "Mumbai", "coordinates": [72.8777, 19.0760]},
        "travel_date": "2025-02-15"
      },
      {
        "origin": {"location_name": "Mumbai", "coordinates": [72.8777, 19.0760]},
        "destination": {"location_name": "Chennai", "coordinates": [80.2707, 13.0827]},
        "travel_date": "2025-02-28"
      },
      {
        "origin": {"location_name": "Kolkata", "coordinates": [88.3639, 22.5726]},
        "destination": {"location_name": "Delhi", "coordinates": [77.1025, 28.7041]},
        "travel_date": "2025-03-05"
      }
    ]
  },
  "LSP-002": {
    "transporter_id": "LSP-002",
    "transporter_name": "Swift Transway",
    "profile_completion": 88,
    "owned_fleet": 120,
    "headquarters": ["Chennai", "Bangalore"],
    "turnover": [
      {
        "financial_year": "2023-2024",
        "amount": "85",
        "unit": "CR"
      }
    ],
    "net_profit": [
      {
        "financial_year": "2023-2024",
        "amount": "12",
        "unit": "CR",
        "currency": "INR",
        "uploaded_on": "2024-07-20T14:30:00Z"
      }
    ],
    "industry_served": ["Pharma", "Electronics", "Paints"],
    "truck_asset_details": ["6 wheeler closed container", "10 wheeler multi-axle"],
    "overall_rating": 4.5,
    "last_updated": "2025-03-05T16:45:00Z",
    "years_of_experience": 8,
    "operating_lanes": [
      {
        "origin": {"location_name": "Chennai", "coordinates": [80.2707, 13.0827]},
        "destination": {"location_name": "Bangalore", "coordinates": [77.5946, 12.9716]},
        "travel_date": "2025-03-01"
      }
    ]
  },
  "LSP-003": {
    "transporter_id": "LSP-003",
    "transporter_name": "Small Scale Carriers",
    "profile_completion": 45,
    "owned_fleet": 15,
    "headquarters": ["Pune"],
    "turnover": [
      {
        "financial_year": "2023-2024",
        "amount": "5",
        "unit": "CR"
      }
    ],
    "net_profit": [
      {
        "financial_year": "2023-2024",
        "amount": "0.5",
        "unit": "CR",
        "currency": "INR",
        "uploaded_on": "2025-01-10T09:00:00Z"
      }
    ],
    "industry_served": ["Local Goods", "Furniture"],
    "truck_asset_details": ["4 wheeler mini truck", "6 wheeler open body"],
    "overall_rating": 3.2,
    "last_updated": "2025-01-15T11:20:00Z",
    "years_of_experience": 2,
    "operating_lanes": [
      {
        "origin": {"location_name": "Pune", "coordinates": [73.8567, 18.5204]},
        "destination": {"location_name": "Mumbai", "coordinates": [72.8777, 19.0760]},
        "travel_date": "2025-03-04"
      }
    ]
  },
  "LSP-004": {
    "transporter_id": "LSP-004",
    "transporter_name": "Metro Freight Solutions",
    "profile_completion": 75,
    "owned_fleet": 85,
    "headquarters": ["Delhi", "Jaipur"],
    "turnover": [
      {
        "financial_year": "2023-2024",
        "amount": "45",
        "unit": "CR"
      }
    ],
    "net_profit": [
      {
        "financial_year": "2023-2024",
        "amount": "4",
        "unit": "CR",
        "currency": "INR",
        "uploaded_on": "2024-08-05T17:15:00Z"
      }
    ],
    "industry_served": ["Food", "Beverages", "Retail"],
    "truck_asset_details": ["10 wheeler open body", "Taurus (MT 21)"],
    "overall_rating": 4.0,
    "last_updated": "2025-02-20T12:00:00Z",
    "years_of_experience": 6,
    "operating_lanes": [
      {
        "origin": {"location_name": "Delhi", "coordinates": [77.1025, 28.7041]},
        "destination": {"location_name": "Jaipur", "coordinates": [75.7873, 26.9124]},
        "travel_date": "2025-02-25"
      }
    ]
  },
  "LSP-005": {
    "transporter_id": "LSP-005",
    "transporter_name": "Eagle Roadlines",
    "profile_completion": 92,
    "owned_fleet": 300,
    "headquarters": ["Ahmedabad", "Gurgaon"],
    "turnover": [
      {
        "financial_year": "2023-2024",
        "amount": "180",
        "unit": "CR"
      }
    ],
    "net_profit": [
      {
        "financial_year": "2023-2024",
        "amount": "22",
        "unit": "CR",
        "currency": "INR",
        "uploaded_on": "2024-09-12T15:20:00Z"
      }
    ],
    "industry_served": ["Oil & Gas", "Energy", "Infrastructure"],
    "truck_asset_details": ["Heavy Trailer", "12 wheeler hydraulic", "10 wheeler open body"],
    "overall_rating": 4.7,
    "last_updated": "2025-03-07T06:00:00Z",
    "years_of_experience": 12,
    "operating_lanes": [
      {
        "origin": {"location_name": "Ahmedabad", "coordinates": [72.5714, 23.0225]},
        "destination": {"location_name": "Jamnagar", "coordinates": [70.0577, 22.4707]},
        "travel_date": "2025-03-01"
      },
      {
        "origin": {"location_name": "Delhi", "coordinates": [77.1025, 28.7041]},
        "destination": {"location_name": "Mumbai", "coordinates": [72.8777, 19.0760]},
        "travel_date": "2025-03-04"
      }
    ]
  }
}
